,Closest City name,Closest Country code,Latitude,Longitude,Temperature,Wind speed,Humidity,Cloudiness
0,beipiao,cn,41.8,120.76,-1.69,1.31,83.0,32.0
1,zhanaozen,kz,43.35,52.85,-6.49,3.51,78.0,0.0
3,puerto escondido,mx,15.86,-97.07,28.0,5.1,65.0,20.0
4,fort smith,us,35.39,-94.42,17.0,4.1,15.0,1.0
5,hamilton,bm,32.3,-64.78,18.0,14.4,68.0,75.0
6,louis trichardt,za,-23.04,29.91,18.71,1.61,89.0,0.0
7,erenhot,cn,43.65,111.97,-0.24,2.26,80.0,12.0
8,hervey bay,au,-25.3,152.85,24.66,9.71,95.0,88.0
9,el corpus,hn,14.7,-88.91,26.36,1.31,59.0,8.0
10,cap malheureux,mu,-19.98,57.61,27.0,8.2,78.0,40.0
11,igarka,ru,67.47,86.57,-16.54,7.06,78.0,68.0
12,raudeberg,no,61.99,5.14,2.0,3.6,43.0,0.0
14,point pedro,lk,9.82,80.23,27.06,4.41,99.0,92.0
15,siavonga,zm,-16.54,28.71,22.16,1.51,96.0,68.0
17,pacific grove,us,36.62,-121.92,15.0,5.1,93.0,90.0
18,ontario,us,34.07,-117.65,23.0,5.7,88.0,90.0
20,sri aman,my,1.24,111.46,24.0,0.96,94.0,40.0
22,lindsay,us,36.2,-119.09,23.0,2.6,64.0,40.0
23,crangurile de sus,ro,44.77,25.23,3.56,1.56,94.0,32.0
24,moerai,pf,-22.43,-151.33,26.56,3.51,100.0,12.0
26,murgab,tm,37.5,61.97,8.0,2.1,81.0,75.0
27,kesan,tr,40.86,26.63,10.41,1.46,96.0,80.0
28,abashiri,jp,44.01,144.25,1.11,2.01,87.0,56.0
29,maxixe,mz,-23.86,35.35,23.86,3.31,100.0,32.0
30,yozgat,tr,39.82,34.81,5.01,2.21,87.0,0.0
31,emerald,au,-23.53,148.16,21.11,4.66,87.0,24.0
32,monteagudo,bo,-19.8,-63.96,27.0,3.1,74.0,90.0
33,montemor-o-novo,pt,38.65,-8.21,14.0,4.1,93.0,40.0
34,bulawayo,zw,-20.16,28.59,16.61,3.66,95.0,12.0
35,san joaquin,bo,-16.38,-58.39,32.21,3.76,62.0,44.0
36,coquimbo,cl,-29.95,-71.34,20.0,5.1,60.0,0.0
37,yarmouth,ca,43.84,-66.12,1.0,13.4,98.0,90.0
39,russell,nz,-35.26,174.12,18.81,4.16,92.0,36.0
40,vanimo,pg,-2.67,141.3,27.76,6.91,100.0,68.0
41,namibe,ao,-15.19,12.15,24.26,2.61,100.0,20.0
42,belmonte,br,-26.84,-53.58,31.76,1.96,44.0,12.0
43,san patricio,mx,19.22,-104.7,28.0,5.1,69.0,20.0
44,oistins,bb,13.07,-59.53,27.0,9.3,74.0,40.0
45,yuanping,cn,38.72,112.71,2.76,1.41,83.0,0.0
46,agirish,ru,61.92,63.02,-8.29,3.21,79.0,44.0
47,am timan,td,11.04,20.28,24.26,3.01,23.0,0.0
48,chikwawa,mw,-16.03,34.79,23.56,2.81,94.0,92.0
49,naryan-mar,ru,67.67,53.09,-17.49,7.06,73.0,0.0
50,bredasdorp,za,-34.53,20.04,21.0,2.1,73.0,76.0
52,jacksonville,us,30.33,-81.66,18.0,3.1,50.0,1.0
53,chuy,uy,-33.69,-53.46,27.16,5.21,49.0,0.0
54,shache,cn,38.42,77.24,4.96,4.06,55.0,12.0
55,fram,py,-27.1,-56.02,25.0,3.1,94.0,75.0
56,yendi,gh,9.45,0.0,29.16,3.46,63.0,48.0
57,gladstone,au,-23.84,151.26,21.81,6.56,87.0,8.0
58,mackay,au,-21.15,149.2,23.0,5.7,83.0,88.0
59,siyabuswa,za,-25.11,29.06,20.66,1.26,73.0,20.0
60,richards bay,za,-28.77,32.06,22.11,4.41,88.0,0.0
61,hamina,fi,60.57,27.2,1.0,1.0,100.0,90.0
62,carnarvon,au,-24.87,113.63,26.96,3.91,94.0,0.0
63,tuburan,ph,10.73,123.82,25.0,2.1,83.0,75.0
64,egvekinot,ru,66.32,-179.17,-29.54,1.26,59.0,20.0
66,chulumani,bo,-16.41,-67.53,12.0,3.1,58.0,75.0
67,redmond,us,47.67,-122.12,11.0,3.1,81.0,90.0
68,broken hill,au,-31.97,141.45,10.71,2.61,88.0,0.0
69,ekuvukeni,za,-28.47,30.16,14.76,1.21,71.0,0.0
70,saint-pierre,pm,46.77,-56.17,2.0,12.3,74.0,90.0
71,gazojak,tm,41.19,61.4,-3.34,1.41,86.0,0.0
72,atuona,pf,-9.8,-139.03,26.16,4.46,100.0,80.0
73,ugoofaaru,mv,5.67,73.0,27.36,6.61,100.0,76.0
75,kaifeng,cn,34.8,114.35,15.0,2.0,87.0,0.0
76,along,in,28.17,94.8,10.51,0.91,91.0,32.0
77,nokaneng,bw,-19.66,22.19,22.11,2.96,61.0,0.0
78,antequera,py,-24.09,-57.2,32.21,1.91,70.0,64.0
79,ortakoy,tr,38.74,34.04,12.0,10.3,50.0,40.0
81,bridgetown,bb,13.1,-59.62,27.0,9.3,74.0,40.0
82,soldotna,us,60.48,-151.07,1.0,4.1,74.0,90.0
83,dongkan,cn,34.0,119.83,9.51,2.46,88.0,20.0
84,hermanus,za,-34.42,19.24,16.36,1.26,94.0,76.0
85,fort nelson,ca,58.81,-122.69,8.0,1.0,39.0,20.0
86,castro,cl,-42.48,-73.76,12.91,4.81,98.0,92.0
88,aykhal,ru,65.95,111.51,-32.99,1.21,40.0,0.0
89,winona,us,44.05,-91.64,2.0,4.6,37.0,1.0
90,samokov,bg,42.33,23.55,6.0,1.5,100.0,90.0
91,ensley,us,33.51,-86.89,15.0,7.2,30.0,0.0
93,san pedro,ar,-33.68,-59.66,28.26,3.66,33.0,0.0
94,hwange,zw,-18.35,26.5,19.46,1.56,83.0,0.0
95,pangnirtung,ca,66.15,-65.72,-18.0,1.86,77.0,40.0
96,apatity,ru,67.57,33.4,-9.74,2.21,80.0,68.0
97,michigan city,us,41.71,-86.9,0.0,7.2,92.0,90.0
98,ligayan,ph,4.65,119.47,28.46,2.26,100.0,0.0
99,yamada,jp,36.58,137.08,10.0,4.1,90.0,20.0
100,puerto ayora,ec,-0.74,-90.35,29.0,5.1,74.0,40.0
101,weihai,cn,37.5,122.11,7.61,8.21,75.0,0.0
102,frankfort,za,-27.28,28.49,19.31,0.16,86.0,32.0
103,hithadhoo,mv,-0.6,73.08,28.66,1.86,100.0,56.0
104,iskateley,ru,67.68,53.15,-17.04,6.46,71.0,0.0
105,okhotsk,ru,59.36,143.24,-19.54,0.56,100.0,44.0
107,odienne,ci,9.51,-7.57,28.21,3.51,58.0,12.0
108,ribeira grande,pt,38.52,-28.7,15.0,17.5,58.0,75.0
109,deputatskiy,ru,69.3,139.9,-41.04,1.21,0.0,20.0
110,chizhou,cn,30.67,117.49,14.11,1.61,86.0,68.0
111,auch,fr,43.65,0.59,10.0,2.1,87.0,0.0
113,birjand,ir,32.86,59.22,5.0,2.1,44.0,0.0
114,guanare,ve,9.04,-69.74,34.0,2.76,44.0,40.0
115,council bluffs,us,41.26,-95.86,9.0,4.1,33.0,1.0
117,synya,ru,65.37,58.04,-5.64,3.41,88.0,80.0
118,cherdyn,ru,60.4,56.48,-7.89,5.91,81.0,88.0
119,saint peters,us,35.62,-89.39,11.0,5.1,34.0,5.0
121,blytheville,us,35.93,-89.92,12.0,5.1,34.0,5.0
122,faanui,pf,-16.48,-151.75,27.31,5.01,100.0,48.0
123,anloga,gh,5.79,0.9,29.0,6.7,83.0,20.0
124,san jose,bo,-17.94,-63.35,30.0,7.7,66.0,40.0
125,saraland,us,30.82,-88.07,18.0,3.1,54.0,1.0
126,mogwase,za,-25.28,27.22,19.0,1.5,82.0,32.0
127,elko,us,40.83,-115.76,18.0,4.6,27.0,1.0
128,anadyr,ru,64.73,177.51,-19.0,3.0,77.0,90.0
129,sabzevar,ir,36.21,57.68,2.66,1.21,80.0,12.0
130,kishi,ng,9.08,3.85,28.71,2.71,44.0,8.0
133,hualmay,pe,-11.1,-77.61,23.96,1.76,64.0,32.0
134,maryville,us,40.35,-94.87,10.0,6.2,49.0,1.0
135,sitangkai,ph,4.66,119.39,28.46,2.26,100.0,0.0
136,verkhnevilyuysk,ru,63.45,120.31,-23.34,2.16,70.0,36.0
137,waitati,nz,-45.75,170.57,12.86,3.86,62.0,0.0
138,fairbanks,us,64.84,-147.72,2.0,4.1,55.0,20.0
139,antalaha,mg,-14.9,50.28,25.26,6.46,92.0,48.0
140,kankaanpaa,fi,61.8,22.42,-2.0,6.2,86.0,92.0
141,vernon,us,41.84,-72.47,2.0,3.6,75.0,90.0
143,nemuro,jp,43.32,145.57,3.46,10.21,83.0,80.0
146,dharchula,in,29.85,80.53,1.01,0.71,75.0,24.0
148,puerto baquerizo moreno,ec,-0.9,-89.6,29.0,4.1,79.0,75.0
149,cabo san lucas,mx,22.89,-109.91,28.0,2.1,44.0,40.0
150,annau,tm,37.89,58.52,7.0,2.1,93.0,90.0
151,ciudad bolivar,ve,8.12,-63.55,34.91,7.56,34.0,0.0
152,rio gallegos,ar,-51.62,-69.22,10.0,6.2,46.0,75.0
153,korla,cn,41.76,86.15,-0.39,1.21,81.0,0.0
154,pevek,ru,69.7,170.27,-30.49,0.71,100.0,44.0
155,verona,us,42.99,-89.53,1.0,4.6,46.0,75.0
156,healdsburg,us,38.61,-122.87,16.0,5.7,67.0,90.0
157,waupun,us,43.63,-88.73,-2.0,6.2,42.0,90.0
158,buta,cd,2.79,24.73,23.71,1.06,85.0,92.0
159,acahay,py,-25.91,-57.11,27.96,1.31,90.0,24.0
160,botro,ci,7.85,-5.31,25.96,2.31,88.0,8.0
161,itaqui,br,-29.13,-56.55,26.61,3.81,51.0,36.0
162,kalakamati,bw,-20.59,27.31,19.26,5.96,68.0,0.0
163,santa cruz,cr,10.26,-85.58,34.0,8.2,44.0,20.0
164,lensk,ru,60.71,114.91,-19.84,2.71,63.0,32.0
165,elmina,gh,5.09,-1.35,27.96,5.06,98.0,0.0
166,illescas,es,40.12,-3.85,10.0,2.6,87.0,0.0
167,springfield,us,37.22,-93.29,11.0,6.7,27.0,1.0
168,xinzhou,cn,38.41,112.73,4.06,1.16,79.0,0.0
169,lovozero,ru,68.01,35.02,-10.94,2.26,77.0,64.0
170,yazoo city,us,32.86,-90.41,14.0,4.6,30.0,1.0
171,la asuncion,ve,11.03,-63.86,27.41,10.31,88.0,0.0
172,virginia,za,-28.1,26.86,21.76,3.46,47.0,48.0
173,presidencia roque saenz pena,ar,-26.79,-60.44,27.36,4.96,83.0,24.0
174,beyneu,kz,45.32,55.19,-9.34,1.26,66.0,24.0
175,traverse city,us,44.76,-85.62,-2.0,4.6,58.0,40.0
176,barcelona,ve,10.14,-64.69,28.36,6.01,84.0,0.0
177,loa janan,id,-0.58,117.09,23.51,0.96,99.0,80.0
178,komsomolskiy,ru,67.55,63.78,-20.54,7.31,80.0,76.0
179,huarmey,pe,-10.07,-78.15,24.66,1.51,54.0,36.0
180,qaanaaq,gl,77.48,-69.36,-22.29,1.76,100.0,44.0
181,susanville,us,40.42,-120.65,9.0,5.1,87.0,90.0
182,morton,us,40.61,-89.46,6.0,5.1,43.0,75.0
183,balkanabat,tm,39.51,54.36,0.26,1.46,77.0,68.0
184,san rafael del sur,ni,11.85,-86.44,35.0,8.2,34.0,20.0
186,fez,ma,34.03,-5.02,15.0,1.5,93.0,75.0
188,mayor pablo lagerenza,py,-19.93,-60.77,33.36,6.56,60.0,0.0
189,belaya gora,ru,68.54,146.19,-39.49,1.46,82.0,44.0
190,morro bay,us,35.37,-120.85,17.0,3.1,87.0,90.0
191,nata,bw,-20.21,26.19,22.61,6.01,56.0,0.0
192,ahuimanu,us,21.44,-157.84,26.0,6.2,69.0,75.0
193,luderitz,na,-26.65,15.16,17.0,5.7,88.0,24.0
195,duobao,cn,30.67,112.69,16.16,2.96,98.0,92.0
196,port hueneme,us,34.15,-119.2,18.0,3.1,93.0,90.0
197,evansville,us,37.97,-87.56,7.0,7.7,45.0,90.0
198,fereydun kenar,ir,36.69,52.52,9.0,4.1,93.0,90.0
199,floro,no,61.6,5.03,2.0,3.6,43.0,0.0
200,twentynine palms,us,34.14,-116.05,31.0,4.6,25.0,75.0
201,jardim,br,-21.48,-56.15,30.26,1.51,75.0,64.0
202,oksfjord,no,70.24,22.35,-7.0,4.1,85.0,75.0
203,shahr-e babak,ir,30.12,55.12,0.76,1.21,65.0,0.0
204,souillac,mu,-20.52,57.52,27.0,8.2,78.0,40.0
205,bulalacao,ph,13.7,123.78,23.81,3.21,100.0,88.0
206,fengzhen,cn,40.43,113.15,0.26,1.16,61.0,0.0
207,hays,us,38.88,-99.33,13.0,3.6,18.0,1.0
209,butaritari,ki,3.07,172.79,28.46,6.91,99.0,44.0
210,palencia,es,42.01,-4.53,8.0,4.1,81.0,20.0
211,mouzouras,gr,35.53,24.15,14.0,8.7,71.0,20.0
212,rabo de peixe,pt,37.8,-25.58,14.0,14.4,87.0,75.0
213,marsa matruh,eg,31.35,27.25,15.0,2.6,77.0,0.0
215,mubende,ug,0.56,31.4,17.26,1.21,91.0,20.0
216,mirnyy,ru,56.57,36.46,-0.59,9.76,93.0,92.0
217,bowen,au,-20.01,148.25,23.0,2.1,83.0,0.0
218,quatre cocos,mu,-20.21,57.76,27.0,8.2,78.0,40.0
219,zhigansk,ru,66.77,123.37,-24.44,2.51,58.0,64.0
220,barrow,us,39.51,-90.4,9.0,9.3,30.0,1.0
223,nuuk,gl,64.17,-51.74,-6.0,1.5,73.0,75.0
226,phuthaditjhaba,za,-28.53,28.82,8.36,0.86,86.0,0.0
227,porto novo,cv,17.02,-25.06,21.0,14.4,77.0,40.0
229,cascais,pt,38.7,-9.42,16.0,6.7,93.0,75.0
230,podporozhye,ru,60.91,34.16,3.26,5.71,99.0,92.0
231,xuanhua,cn,40.61,115.04,-1.74,0.86,71.0,20.0
232,calama,cl,-22.46,-68.93,24.0,10.8,8.0,0.0
233,usinsk,ru,66.0,57.56,-5.34,4.11,90.0,88.0
235,aksu,cn,41.12,80.26,5.71,2.76,51.0,68.0
237,poplar bluff,us,36.76,-90.39,13.0,5.7,29.0,1.0
239,bumba,cd,2.18,22.47,26.76,3.11,63.0,20.0
240,porosozero,ru,62.72,32.71,-0.64,1.36,97.0,92.0
241,sedalia,us,38.7,-93.23,10.0,4.6,23.0,1.0
242,san javier,bo,-16.27,-62.5,28.0,4.1,78.0,40.0
243,caidian,cn,30.59,114.03,17.0,3.0,88.0,90.0
244,baljevac,rs,43.39,20.64,9.0,0.5,93.0,75.0
245,kpandae,gh,8.46,-0.01,25.36,1.61,88.0,44.0
246,kem,ru,64.96,34.58,-3.74,5.71,91.0,88.0
247,barinas,ve,8.64,-70.23,34.0,2.21,44.0,40.0
248,bousse,bf,12.66,-1.89,34.0,1.5,28.0,20.0
249,calhoun,us,34.5,-84.95,13.0,3.6,34.0,1.0
250,gazanjyk,tm,39.24,55.52,2.56,1.76,87.0,12.0
251,jorochito,bo,-18.06,-63.43,30.0,7.7,66.0,40.0
252,dondo,mz,-19.62,34.74,26.66,4.51,80.0,56.0
254,katiola,ci,8.14,-5.1,25.41,1.86,90.0,0.0
255,pangai,to,-19.8,-174.35,30.0,4.1,84.0,40.0
256,uyuni,bo,-20.46,-66.82,17.76,2.66,29.0,76.0
257,chokurdakh,ru,70.62,147.9,-32.99,4.21,43.0,48.0
258,dikson,ru,73.51,80.55,-20.24,7.96,94.0,48.0
259,hobart,au,-42.88,147.33,13.0,2.1,82.0,75.0
260,kayerkan,ru,69.35,87.76,-18.89,9.46,83.0,56.0
263,selma,us,36.57,-119.61,23.0,4.6,64.0,1.0
264,port blair,in,11.67,92.75,28.11,2.66,100.0,0.0
265,mamburao,ph,13.22,120.6,22.06,2.66,100.0,0.0
266,baeza,es,37.99,-3.47,8.66,1.41,94.0,76.0
267,kiruna,se,67.86,20.23,-10.0,3.1,85.0,90.0
268,mutare,zw,-18.97,32.67,15.71,0.91,92.0,0.0
269,college,us,64.86,-147.8,2.0,4.1,55.0,20.0
270,san matias,bo,-16.36,-58.4,32.21,3.76,62.0,44.0
271,smyrna,us,35.98,-86.52,11.0,5.1,36.0,1.0
272,new norfolk,au,-42.78,147.06,13.0,2.1,82.0,75.0
273,saskylakh,ru,71.97,114.09,-36.64,1.26,62.0,24.0
274,fortuna,us,40.6,-124.16,14.0,3.6,71.0,40.0
276,mendota,us,36.75,-120.38,22.0,4.6,64.0,1.0
277,filingue,ne,14.35,3.32,24.16,2.31,36.0,0.0
279,vagur,fo,61.47,-6.81,6.16,11.56,100.0,92.0
280,acajutla,sv,13.59,-89.83,35.0,3.1,66.0,0.0
281,pahrump,us,36.21,-115.98,23.0,8.2,37.0,1.0
283,pozo colorado,py,-23.49,-58.8,32.86,2.56,69.0,8.0
284,port hedland,au,-20.31,118.58,25.0,3.1,73.0,0.0
285,peniche,pt,39.36,-9.38,15.0,6.7,93.0,75.0
286,zonguldak,tr,41.25,31.83,9.61,3.46,86.0,32.0
288,geraldton,au,-28.77,114.6,22.0,1.5,64.0,0.0
289,brae,gb,60.4,-1.35,2.0,4.1,95.0,44.0
290,kumluca,tr,36.37,30.29,1.36,0.76,90.0,44.0
291,hay river,ca,60.82,-115.79,3.0,4.1,64.0,75.0
292,fuxin,cn,42.02,121.65,0.21,1.16,90.0,68.0
293,ano mera,gr,37.45,25.4,15.0,6.7,67.0,0.0
294,upernavik,gl,72.79,-56.15,-15.99,0.56,100.0,76.0
295,avarua,ck,-21.21,-159.78,29.0,2.1,83.0,75.0
296,rikitea,pf,-23.12,-134.97,26.51,4.56,100.0,8.0
297,xai-xai,mz,-25.04,33.64,23.81,2.06,100.0,0.0
300,kembe,cf,4.62,21.89,24.86,0.16,76.0,8.0
301,san ramon de la nueva oran,ar,-23.13,-64.33,26.36,2.81,85.0,68.0
302,lebu,cl,-37.62,-73.65,16.26,3.71,100.0,0.0
303,huangchuan,cn,24.57,102.46,6.0,3.0,75.0,0.0
304,saint-joseph,re,-21.37,55.62,26.0,4.6,65.0,0.0
305,mumford,gh,5.26,-0.76,27.01,4.01,85.0,0.0
307,koutiala,ml,12.39,-5.46,31.81,4.16,33.0,48.0
308,alepe,ci,5.5,-3.66,28.0,4.1,83.0,20.0
309,lahad datu,my,5.02,118.33,23.86,1.31,100.0,36.0
310,grand gaube,mu,-20.01,57.66,27.0,8.2,78.0,40.0
311,ilesha,ng,7.14,5.26,26.46,3.46,68.0,44.0
312,filadelfia,py,-22.35,-60.04,30.61,1.71,74.0,36.0
313,larsnes,no,62.2,5.58,-1.0,7.46,85.0,0.0
314,ingham,au,-18.65,146.16,24.61,5.36,100.0,0.0
315,aquiraz,br,-3.9,-38.39,29.0,3.6,74.0,20.0
316,limbang,my,4.75,115.0,26.0,2.6,94.0,75.0
317,bend,us,44.06,-121.32,12.0,5.1,81.0,90.0
318,puerto quijarro,bo,-19.0,-57.72,33.0,2.6,59.0,40.0
319,willmar,us,45.12,-95.04,3.0,5.7,80.0,1.0
320,alexandria,eg,31.2,29.89,18.0,3.1,82.0,0.0
321,katima mulilo,na,-17.5,24.28,21.76,3.86,74.0,8.0
322,nantucket,us,41.28,-70.1,0.0,11.3,92.0,92.0
323,karasjok,no,69.47,25.52,-16.0,1.5,84.0,40.0
324,thompson,ca,55.74,-97.86,7.0,6.7,42.0,20.0
325,nara,ml,15.17,-7.29,29.46,3.51,17.0,56.0
326,claveria,ph,8.61,124.89,17.11,1.41,100.0,0.0
327,el suyatal,hn,14.54,-87.21,34.0,5.7,28.0,1.0
329,chokwe,mz,-24.53,32.98,20.81,1.91,98.0,0.0
330,axim,gh,4.87,-2.24,27.36,3.91,100.0,56.0
331,semirom,ir,31.41,51.57,-8.04,1.06,66.0,0.0
333,lorengau,pg,-2.02,147.27,28.36,4.16,99.0,48.0
334,yellowknife,ca,62.45,-114.38,2.0,3.6,59.0,20.0
335,paralimni,cy,35.04,33.98,14.0,1.5,93.0,40.0
336,honningsvag,no,70.98,25.97,-4.0,6.2,68.0,75.0
337,talavera de la reina,es,39.96,-4.83,7.01,2.21,96.0,8.0
338,texarkana,us,33.44,-94.04,15.0,1.5,38.0,1.0
339,klaksvik,fo,62.23,-6.59,3.0,10.3,93.0,92.0
340,tarakan,id,3.3,117.63,24.66,0.96,100.0,76.0
341,santa rosa,bo,-20.7,-64.83,18.66,0.96,82.0,48.0
342,aborlan,ph,9.44,118.55,27.0,5.1,83.0,20.0
343,chifeng,cn,42.27,118.96,-0.14,1.96,97.0,0.0
344,el tigre,ve,8.89,-64.25,34.36,7.56,32.0,0.0
345,suicheng,cn,33.9,117.93,10.21,2.71,89.0,0.0
346,yeppoon,au,-23.13,150.74,24.0,3.6,64.0,0.0
347,grand island,us,40.92,-98.34,9.0,2.11,18.0,1.0
348,banamba,ml,13.55,-7.45,28.76,3.36,23.0,24.0
349,mabaruma,gy,8.2,-59.78,27.61,4.11,74.0,36.0
350,shakawe,bw,-18.36,21.84,23.01,4.36,59.0,0.0
353,ponta delgada,pt,37.73,-25.67,14.0,14.4,87.0,75.0
356,srednekolymsk,ru,67.46,153.71,-31.24,1.26,72.0,48.0
357,narsaq,gl,60.91,-46.05,-16.79,0.56,56.0,0.0
358,ballina,au,-28.87,153.57,23.36,6.81,100.0,92.0
359,mehriz,ir,31.58,54.44,14.0,2.1,20.0,0.0
360,kaitangata,nz,-46.28,169.85,12.96,7.86,64.0,12.0
361,karratha,au,-20.74,116.85,22.76,1.31,79.0,0.0
362,montoro,es,38.02,-4.38,14.0,2.1,87.0,92.0
363,kysyl-syr,ru,63.9,122.77,-23.74,2.11,72.0,36.0
366,emet,tr,39.34,29.26,5.16,3.26,97.0,48.0
367,akdepe,tm,42.05,59.39,-2.0,2.1,63.0,90.0
368,siocon,ph,11.03,124.04,26.86,5.46,99.0,68.0
369,torbat-e jam,ir,35.24,60.63,2.61,0.01,94.0,76.0
370,la rioja,ar,-29.41,-66.86,28.01,2.76,47.0,32.0
371,kapit,my,2.02,112.94,22.21,1.16,99.0,92.0
372,vaitape,pf,-16.52,-151.75,27.46,5.26,100.0,36.0
373,usulutan,sv,13.35,-88.45,36.0,6.7,47.0,20.0
375,yanam,in,16.73,82.22,23.91,3.46,89.0,0.0
376,kisangani,cd,0.52,25.21,24.46,1.66,78.0,8.0
377,koslan,ru,63.46,48.9,-5.89,1.76,85.0,92.0
378,albany,au,-35.02,117.88,19.36,3.56,88.0,100.0
381,nador,ma,35.17,-2.93,17.0,5.1,82.0,0.0
382,tolaga bay,nz,-38.37,178.3,18.51,5.96,65.0,0.0
383,damghan,ir,36.17,54.34,4.71,1.66,86.0,0.0
384,shihezi,cn,44.3,86.03,0.86,1.41,95.0,68.0
385,saint-philippe,re,-21.36,55.77,26.0,4.6,65.0,0.0
386,fengcheng,cn,40.45,124.07,4.81,3.41,94.0,56.0
387,progreso,mx,20.25,-99.19,24.91,1.96,35.0,0.0
388,kraljevo,rs,43.72,20.69,9.0,0.5,93.0,75.0
389,lobatse,bw,-25.21,25.68,20.0,3.1,72.0,0.0
390,mananjary,mg,-19.16,46.8,15.11,1.46,78.0,24.0
391,ous,ru,60.91,61.52,-8.29,3.11,64.0,44.0
392,bonfim,br,-20.33,-44.24,30.0,2.6,45.0,20.0
394,charters towers,au,-20.07,146.27,18.36,1.61,89.0,0.0
395,gongzhuling,cn,43.5,124.81,-2.69,4.01,92.0,56.0
396,kalabo,zm,-15.0,22.67,19.96,2.16,91.0,56.0
397,jiexiu,cn,37.02,111.92,4.46,1.56,76.0,0.0
398,juegang,cn,32.31,121.18,13.61,6.51,83.0,20.0
399,puerto madero,mx,14.72,-92.42,32.0,5.1,62.0,20.0
401,itarema,br,-2.92,-39.92,27.86,4.06,76.0,48.0
402,wattegama,lk,7.35,80.68,19.26,1.11,99.0,12.0
403,baruun-urt,mn,46.68,113.28,-6.84,9.96,72.0,88.0
404,hakodate,jp,41.8,140.75,7.0,4.6,81.0,75.0
405,henties bay,na,-22.12,14.28,17.71,3.11,99.0,0.0
406,duekoue,ci,6.74,-7.35,26.61,1.86,77.0,76.0
408,sisimiut,gl,66.94,-53.67,-12.24,1.16,86.0,88.0
409,niamey,ne,13.52,2.11,32.0,1.5,6.0,0.0
410,una,br,-15.29,-39.07,28.0,2.1,83.0,75.0
412,huntsville,us,34.73,-86.59,13.0,6.2,32.0,1.0
413,jamestown,sh,-15.94,-5.72,23.81,6.71,100.0,32.0
416,jacqueville,ci,5.21,-4.42,28.0,4.1,83.0,20.0
418,batie,bf,9.88,-2.92,26.61,1.36,73.0,20.0
419,lagoa,pt,37.14,-8.45,16.0,3.6,93.0,40.0
421,prodromos,gr,39.38,21.98,10.56,3.61,51.0,0.0
423,beringovskiy,ru,63.05,179.32,-9.49,11.31,98.0,76.0
424,svetlogorsk,ru,53.14,59.15,-19.0,1.31,77.0,0.0
425,touros,br,-5.2,-35.46,28.16,4.71,79.0,12.0
426,senanga,zm,-16.1,23.3,22.66,5.21,71.0,12.0
427,sao filipe,cv,14.9,-24.5,23.46,7.31,84.0,0.0
428,bandarbeyla,so,9.49,50.81,25.06,2.96,100.0,0.0
430,xinzhi,cn,36.5,111.7,3.26,0.96,63.0,0.0
431,kavieng,pg,-2.57,150.8,28.51,3.86,100.0,12.0
433,provideniya,ru,64.42,-173.23,-18.0,8.0,70.0,75.0
434,udachnyy,ru,66.42,112.4,-30.04,1.11,62.0,8.0
435,tuy hoa,vn,13.08,109.3,21.91,1.11,99.0,92.0
436,mehamn,no,71.03,27.85,-4.0,4.1,79.0,75.0
437,lincoln,us,40.8,-96.67,10.0,4.6,26.0,1.0
439,bundaberg,au,-24.87,152.35,24.86,12.41,100.0,44.0
440,spencer,us,43.14,-95.14,4.0,3.6,55.0,1.0
441,trairi,br,-3.28,-39.27,27.96,5.36,100.0,44.0
442,scarborough,tt,11.18,-60.73,28.0,6.7,65.0,20.0
443,saint george,bm,32.38,-64.68,18.0,13.9,63.0,75.0
444,mamallapuram,in,12.63,80.17,28.0,2.6,83.0,40.0
445,zuenoula,ci,7.43,-6.04,25.71,2.41,88.0,0.0
446,ukiah,us,39.15,-123.21,13.0,5.1,62.0,90.0
447,garmsar,ir,35.22,52.34,1.96,1.16,61.0,0.0
448,ramsar,ir,36.92,50.64,8.0,0.91,100.0,90.0
449,yuci,cn,37.68,112.73,6.0,2.0,56.0,0.0
451,zyryanka,ru,65.73,150.89,-35.49,1.06,55.0,0.0
452,zaraza,ve,9.35,-65.33,36.01,5.71,31.0,0.0
453,kholodnyy,ru,62.72,147.95,-35.64,1.11,49.0,24.0
454,tuktoyaktuk,ca,69.44,-133.03,-5.0,3.6,84.0,20.0
455,moissac,fr,44.11,1.08,10.0,2.1,87.0,0.0
456,boa vista,br,2.82,-60.67,32.0,8.2,43.0,75.0
457,hofn,is,64.25,-15.21,3.11,13.21,100.0,92.0
460,bintulu,my,3.17,113.03,24.0,2.1,100.0,75.0
461,namie,jp,37.52,140.86,11.0,0.5,56.0,75.0
462,inirida,co,3.87,-67.92,35.16,0.71,37.0,0.0
463,pisco,pe,-13.71,-76.2,26.0,7.2,61.0,0.0
464,saldanha,za,-33.01,17.94,17.0,1.0,77.0,36.0
465,watsa,cd,3.04,29.53,20.36,1.31,88.0,24.0
466,hilo,us,19.71,-155.08,21.0,2.6,83.0,90.0
467,morong,ph,14.52,121.24,25.0,2.6,88.0,20.0
468,vardo,no,70.37,31.11,-11.0,5.1,85.0,20.0
469,jumla,np,29.28,82.18,-4.84,0.96,84.0,8.0
470,jonesboro,us,35.84,-90.7,14.0,4.1,24.0,1.0
471,christchurch,nz,-43.53,172.64,13.0,2.6,82.0,0.0
472,phalaborwa,za,-23.95,31.14,21.41,2.66,85.0,20.0
473,anaco,ve,9.43,-64.46,32.96,7.36,35.0,0.0
474,stejaru,ro,44.84,25.96,10.0,3.6,93.0,40.0
475,kodiak,us,39.95,-94.76,10.0,5.7,25.0,1.0
476,alta,no,69.97,23.27,-8.0,2.1,72.0,0.0
477,roma,au,-26.57,148.79,19.06,3.61,86.0,8.0
478,maun,bw,-19.99,23.42,21.16,2.21,68.0,0.0
479,rincon de la victoria,es,36.72,-4.28,15.0,1.5,87.0,20.0
481,solnechnyy,ru,50.72,136.64,-13.89,1.96,85.0,0.0
482,chipinge,zw,-20.19,32.62,19.86,1.41,90.0,48.0
483,cape town,za,-33.93,18.42,19.0,2.6,88.0,20.0
484,kutum,sd,14.2,24.66,15.91,4.21,18.0,0.0
485,jining,cn,35.41,116.58,11.31,3.36,88.0,0.0
486,bardiyah,ly,31.76,25.09,15.31,3.91,99.0,0.0
488,hobyo,so,5.35,48.53,25.11,3.76,93.0,0.0
489,linhares,br,-19.38,-40.06,28.26,4.21,59.0,32.0
490,belyy yar,ru,53.6,91.39,-23.0,1.0,76.0,90.0
491,praia da vitoria,pt,38.73,-27.07,14.0,19.71,76.0,40.0
493,yarada,in,17.65,83.27,27.41,8.11,99.0,8.0
494,shizunai,jp,42.33,142.37,-0.04,2.21,92.0,8.0
495,mugla,tr,37.22,28.37,13.0,1.0,87.0,75.0
496,hami,cn,42.84,93.51,4.61,1.06,81.0,0.0
497,esperance,au,-33.86,121.89,19.11,6.61,64.0,48.0
498,redondo,pt,38.65,-7.55,14.0,2.6,76.0,0.0
499,isiro,cd,2.77,27.62,21.41,1.01,91.0,48.0
